[
{"business_id": "7zDbcbUkafhkanpTE5TQRQ", "full_address": "210 Prices Fork Rd\nBlacksburg, VA 24060", "schools": ["Virginia Tech"], "open": true, "categories": ["Indian", "Restaurants"], "photo_url": "http://s3-media1.px.yelpcdn.com/bphoto/2ib60O025kY_YLqab5Vdqg/ms.jpg", "city": "Blacksburg", "review_count": 14, "name": "India Garden Restaurant", "neighborhoods": [], "url": "http://www.yelp.com/biz/india-garden-restaurant-blacksburg", "longitude": -80.421302795410199, "state": "VA", "stars": 3.5, "latitude": 37.234699249267599, "type": "business"},
{"business_id": "B1yzS_JFgWxQVHsqQp-d7g", "full_address": "120 Arbor Dr\nChristiansburg, VA 24073", "schools": ["Virginia Tech"], "open": true, "categories": ["Japanese", "Restaurants"], "photo_url": "http://s3-media4.px.yelpcdn.com/bphoto/NoQFQdpgkq0CNAyVzAyZ-g/ms.jpg", "city": "Christiansburg", "review_count": 10, "name": "Kabuki Japanese Steak House", "neighborhoods": [], "url": "http://www.yelp.com/biz/kabuki-japanese-steak-house-christiansburg", "longitude": -80.418502807617202, "state": "VA", "stars": 2.5, "latitude": 37.168998718261697, "type": "business"},
{"business_id": "Y0WP6ZFx-CSYmsbKogLkhQ", "full_address": "2650 Market St\nChristiansburg, VA 24073", "schools": ["Virginia Tech"], "open": true, "categories": ["American (New)", "Restaurants"], "photo_url": "http://s3-media1.px.yelpcdn.com/bphoto/cU1SR9s3k2sgwTjNblYYfg/ms.jpg", "city": "Christiansburg", "review_count": 2, "name": "Arby's Roastbeef Restaurant", "neighborhoods": [], "url": "http://www.yelp.com/biz/arbys-roastbeef-restaurant-christiansburg", "longitude": -80.421699523925795, "state": "VA", "stars": 3.0, "latitude": 37.1640014648438, "type": "business"},
{"business_id": "g-mJhTtvg_uyv5zRFCIOkQ", "full_address": "1001 N Main St\nBlacksburg, VA 24060", "schools": ["Virginia Tech"], "open": true, "categories": ["American (Traditional)", "Restaurants"], "photo_url": "http://s3-media1.px.yelpcdn.com/bphoto/RMqq8jVOFU4mWtI6TPgD2Q/ms.jpg", "city": "Blacksburg", "review_count": 3, "name": "Abby's Restaurant & Bar", "neighborhoods": [], "url": "http://www.yelp.com/biz/abbys-restaurant-and-bar-blacksburg", "longitude": -80.420400000000001, "state": "VA", "stars": 3.5, "latitude": 37.238700000000001, "type": "business"},
{"business_id": "GJIZlVlPncUQk9x1EjgnFA", "full_address": "715 University City Blvd\nBlacksburg, VA 24060", "schools": ["Virginia Tech"], "open": true, "categories": ["Food", "Bakeries", "Coffee & Tea", "Sandwiches", "Restaurants"], "photo_url": "http://s3-media2.px.yelpcdn.com/bphoto/uty3_xhifVpb0pK2nammGQ/ms.jpg", "city": "Blacksburg", "review_count": 3, "name": "Panera Bread", "neighborhoods": [], "url": "http://www.yelp.com/biz/panera-bread-blacksburg", "longitude": -80.432603, "state": "VA", "stars": 3.5, "latitude": 37.232106000000002, "type": "business"},
{"business_id": "gomSgjEesyhMgdN8w2tBOA", "full_address": "153 College Ave\nBlacksburg, VA 24060", "schools": ["Virginia Tech"], "open": true, "categories": ["Vegetarian", "Vegan", "Restaurants"], "photo_url": "http://s3-media3.px.yelpcdn.com/bphoto/BaMpOZMAy89TjtT6emvXzg/ms.jpg", "city": "Blacksburg", "review_count": 50, "name": "Gillie's Cuisine", "neighborhoods": [], "url": "http://www.yelp.com/biz/gillies-cuisine-blacksburg", "longitude": -80.416077200000004, "state": "VA", "stars": 4.0, "latitude": 37.2301638, "type": "business"},
{"business_id": "kjrq7LOaMawzLTVlLMpApQ", "full_address": "105 Peppers Ferry Rd NW\nChristiansburg, VA 24073", "schools": ["Virginia Tech"], "open": true, "categories": ["Burgers", "Restaurants"], "photo_url": "http://media1.px.yelpcdn.com/static/201012163223336441/img/gfx/blank_biz_medium.gif", "city": "Christiansburg", "review_count": 5, "name": "Red Robin Gourmet Burgers", "neighborhoods": [], "url": "http://www.yelp.com/biz/red-robin-gourmet-burgers-christiansburg", "longitude": -80.425858000000005, "state": "VA", "stars": 3.5, "latitude": 37.163386000000003, "type": "business"},
{"business_id": "G_GPyXy1k9yA3njUJpW55g", "full_address": "201 N Main St\nBlacksburg, VA 24060", "schools": ["Virginia Tech"], "open": true, "categories": ["Sushi Bars", "Restaurants"], "photo_url": "http://s3-media2.px.yelpcdn.com/bphoto/KWwYiObXFTRXSW01r1EIFg/ms.jpg", "city": "Blacksburg", "review_count": 10, "name": "Poor Billy's Seafood Restaurant", "neighborhoods": [], "url": "http://www.yelp.com/biz/poor-billys-seafood-restaurant-blacksburg", "longitude": -80.414802551269503, "state": "VA", "stars": 3.0, "latitude": 37.2299995422363, "type": "business"},
{"business_id": "76hIZMzHZ_lFM0p2N7_gRQ", "full_address": "302 N Main St\nBlacksburg, VA 24060", "schools": ["Virginia Tech"], "open": true, "categories": ["Greek", "Restaurants"], "photo_url": "http://s3-media1.px.yelpcdn.com/bphoto/fzwXceIJMdTeQ1rFhulI9w/ms.jpg", "city": "Blacksburg", "review_count": 27, "name": "The Cellar Restaurant", "neighborhoods": [], "url": "http://www.yelp.com/biz/the-cellar-restaurant-blacksburg", "longitude": -80.4148, "state": "VA", "stars": 3.5, "latitude": 37.231000000000002, "type": "business"},
{"business_id": "RrczVxs8amaeQm-bVx96sA", "full_address": "860 University City Blvd\nBlacksburg, VA 24060", "schools": ["Virginia Tech"], "open": true, "categories": ["Pizza", "Restaurants"], "photo_url": "http://media1.px.yelpcdn.com/static/201012163223336441/img/gfx/blank_biz_medium.gif", "city": "Blacksburg", "review_count": 4, "name": "Firehouse Pizza", "neighborhoods": [], "url": "http://www.yelp.com/biz/firehouse-pizza-blacksburg", "longitude": -80.433898925781193, "state": "VA", "stars": 3.0, "latitude": 37.234699249267599, "type": "business"},
{"business_id": "XdUJ1x8JZEB5Q1wer-c28g", "full_address": "1410 S Main St\nBlacksburg, VA 24060", "schools": ["Virginia Tech"], "open": false, "categories": ["Mexican", "Restaurants"], "photo_url": "http://media1.px.yelpcdn.com/static/201012163223336441/img/gfx/blank_biz_medium.gif", "city": "Blacksburg", "review_count": 2, "name": "El Guadalupes", "neighborhoods": [], "url": "http://www.yelp.com/biz/el-guadalupes-blacksburg", "longitude": -80.401100158691406, "state": "VA", "stars": 4.0, "latitude": 37.215900421142599, "type": "business"},
{"business_id": "u1wF70zlIMVOG9sPvwyojA", "full_address": "901 Prices Fork Road\nBlacksburg, VA 24061", "schools": ["Virginia Tech"], "open": true, "categories": ["American (Traditional)", "Restaurants"], "photo_url": "http://media1.px.yelpcdn.com/static/201012163223336441/img/gfx/blank_biz_medium.gif", "city": "Blacksburg", "review_count": 2, "name": "Preston's", "neighborhoods": [], "url": "http://www.yelp.com/biz/prestons-blacksburg", "longitude": -80.429986, "state": "VA", "stars": 2.5, "latitude": 37.229807000000001, "type": "business"},
{"business_id": "zTuPYiRzmeYZqjxTeAqhSA", "full_address": "217 College Ave\nBlacksburg, VA 24060", "schools": ["Virginia Tech"], "open": true, "categories": ["Sandwiches", "Restaurants"], "photo_url": "http://s3-media1.px.yelpcdn.com/bphoto/0iUqSAxngdne9sFtTlk4Iw/ms.jpg", "city": "Blacksburg", "review_count": 4, "name": "Jimmy Johns Gourmet Sandwiches", "neighborhoods": [], "url": "http://www.yelp.com/biz/jimmy-johns-gourmet-sandwiches-blacksburg", "longitude": -80.416809999999998, "state": "VA", "stars": 3.5, "latitude": 37.229900000000001, "type": "business"},
{"business_id": "o-orjPn9_bi_d3CCItXs0w", "full_address": "Squires Student Center\nVirginia Tech Campus\nBlacksburg, VA 24062", "schools": ["Virginia Tech"], "open": true, "categories": ["Soup", "Sandwiches", "Restaurants"], "photo_url": "http://media1.px.yelpcdn.com/static/201012163223336441/img/gfx/blank_biz_medium.gif", "city": "Blacksburg", "review_count": 2, "name": "Au Bon Pain", "neighborhoods": [], "url": "http://www.yelp.com/biz/au-bon-pain-blacksburg", "longitude": -80.414400000000001, "state": "VA", "stars": 4.0, "latitude": 37.229399999999998, "type": "business"},
{"business_id": "Te72-fjbquQFCfPBgJ4ldQ", "full_address": "205 N Main St\nBlacksburg, VA 24060", "schools": ["Virginia Tech"], "open": true, "categories": ["Cajun/Creole", "American (New)", "Restaurants"], "photo_url": "http://s3-media3.px.yelpcdn.com/bphoto/kq1ANG-O14hhXX_uNXVBwQ/ms.jpg", "city": "Blacksburg", "review_count": 23, "name": "Boudreaux's Restaurant", "neighborhoods": [], "url": "http://www.yelp.com/biz/boudreauxs-restaurant-blacksburg", "longitude": -80.414802551269503, "state": "VA", "stars": 3.0, "latitude": 37.2299995422363, "type": "business"},
{"business_id": "I5dFvzPt57bb9T7z0Mp-jw", "full_address": "1317 S Main St\nBlacksburg, VA 24060", "schools": ["Virginia Tech"], "open": true, "categories": ["Food", "Bakeries", "Restaurants"], "photo_url": "http://s3-media1.px.yelpcdn.com/bphoto/YMli7d2oejmfPqQnQ7m7Lw/ms.jpg", "city": "Blacksburg", "review_count": 10, "name": "Our Daily Bread Cafe and Bakery", "neighborhoods": [], "url": "http://www.yelp.com/biz/our-daily-bread-cafe-and-bakery-blacksburg", "longitude": -80.401901245117202, "state": "VA", "stars": 4.0, "latitude": 37.218498229980497, "type": "business"},
{"business_id": "tJwomYMNjpd4A31rDMXMCw", "full_address": "220 N Main St\nBlacksburg, VA 24060", "schools": ["Virginia Tech"], "open": true, "categories": ["Bars", "Pool Halls", "Nightlife", "Restaurants"], "photo_url": "http://s3-media4.px.yelpcdn.com/bphoto/Rb5r0r7CRgmnTfA3GZI_HA/ms.jpg", "city": "Blacksburg", "review_count": 24, "name": "Sharkey's", "neighborhoods": [], "url": "http://www.yelp.com/biz/sharkeys-blacksburg", "longitude": -80.414828, "state": "VA", "stars": 3.0, "latitude": 37.230156000000001, "type": "business"},
{"business_id": "6CWCx51YbZ7ktkRSzA4ITQ", "full_address": "800 University City Blvd\nBlacksburg, VA 24060", "schools": ["Virginia Tech"], "open": true, "categories": ["Sandwiches", "Restaurants"], "photo_url": "http://media1.px.yelpcdn.com/static/201012163223336441/img/gfx/blank_biz_medium.gif", "city": "Blacksburg", "review_count": 2, "name": "Firehouse Subs", "neighborhoods": [], "url": "http://www.yelp.com/biz/firehouse-subs-blacksburg", "longitude": -80.432400000000001, "state": "VA", "stars": 4.0, "latitude": 37.233699999999999, "type": "business"},
{"business_id": "ZFdGatpUaeb37NZRGsL_yw", "full_address": "1407 N Main St\nBlacksburg, VA 24060", "schools": ["Virginia Tech"], "open": true, "categories": ["Pizza", "Restaurants"], "photo_url": "http://media1.px.yelpcdn.com/static/201012163223336441/img/gfx/blank_biz_medium.gif", "city": "Blacksburg", "review_count": 7, "name": "Roma's Pizza", "neighborhoods": [], "url": "http://www.yelp.com/biz/romas-pizza-blacksburg", "longitude": -80.415397644042997, "state": "VA", "stars": 4.0, "latitude": 37.245998382568402, "type": "business"},
{"business_id": "dZwZlfR-FZkRmA5D4PtMaA", "full_address": "1440 S Main St\nSte 110\nBlacksburg, VA 24060", "schools": ["Virginia Tech"], "open": true, "categories": ["Italian", "Pizza", "Restaurants"], "photo_url": "http://media1.px.yelpcdn.com/static/201012163223336441/img/gfx/blank_biz_medium.gif", "city": "Blacksburg", "review_count": 6, "name": "Sal's Italian Restaurant & Pizzeria", "neighborhoods": [], "url": "http://www.yelp.com/biz/sals-italian-restaurant-and-pizzeria-blacksburg", "longitude": -80.401065700000004, "state": "VA", "stars": 3.5, "latitude": 37.216255500000003, "type": "business"},
{"business_id": "Ij5vTLLpmulfCsK64jGGxw", "full_address": "322 N Main St\nBlacksburg, VA 24060", "schools": ["Virginia Tech"], "open": true, "categories": ["American (Traditional)", "Restaurants"], "photo_url": "http://s3-media4.px.yelpcdn.com/bphoto/SS71kiGtPGFSr-kpzR0X3A/ms.jpg", "city": "Blacksburg", "review_count": 8, "name": "Hokie House", "neighborhoods": [], "url": "http://www.yelp.com/biz/hokie-house-blacksburg", "longitude": -80.415400000000005, "state": "VA", "stars": 3.0, "latitude": 37.231400000000001, "type": "business"},
{"business_id": "3juObN8h-4AZfaxLDhPtQw", "full_address": "111 N Main St\nBlacksburg, VA 24060", "schools": ["Virginia Tech"], "open": true, "categories": ["Pool Halls", "Nightlife", "Restaurants"], "photo_url": "http://s3-media2.px.yelpcdn.com/bphoto/v9v2bnk8bMLePIfI3BKxFA/ms.jpg", "city": "Blacksburg", "review_count": 10, "name": "Champs Sports Bar & Cafe", "neighborhoods": [], "url": "http://www.yelp.com/biz/champs-sports-bar-and-cafe-blacksburg", "longitude": -80.414596557617202, "state": "VA", "stars": 3.5, "latitude": 37.229801177978501, "type": "business"},
{"business_id": "rApUugTXL6kg1DIosUhDUQ", "full_address": "400 Turner St NW\nSte 101\nBlacksburg, VA 24060", "schools": ["Virginia Tech"], "open": false, "categories": ["Restaurants"], "photo_url": "http://media1.px.yelpcdn.com/static/201012163223336441/img/gfx/blank_biz_medium.gif", "city": "Blacksburg", "review_count": 4, "name": "Bud Foster's Restaurant", "neighborhoods": [], "url": "http://www.yelp.com/biz/bud-fosters-restaurant-blacksburg", "longitude": -80.421591500000005, "state": "VA", "stars": 3.5, "latitude": 37.232921500000003, "type": "business"},
{"business_id": "rXGioez8wVRBwJXJoBj9LQ", "full_address": "860 University City Blvd\nBlacksburg, VA 24060", "schools": ["Virginia Tech"], "open": true, "categories": ["Sushi Bars", "Japanese", "Restaurants"], "photo_url": "http://s3-media1.px.yelpcdn.com/bphoto/F_iQkfqO3wVuoRMRprl6ZQ/ms.jpg", "city": "Blacksburg", "review_count": 20, "name": "Kobe Japanese Express", "neighborhoods": [], "url": "http://www.yelp.com/biz/kobe-japanese-express-blacksburg", "longitude": -80.433898925781193, "state": "VA", "stars": 4.0, "latitude": 37.234699249267599, "type": "business"},
{"business_id": "kN6Ai2WOz8dEBC75l77iBg", "full_address": "1305 S Main St\nBlacksburg, VA 24060", "schools": ["Virginia Tech"], "open": true, "categories": ["Chinese", "Restaurants"], "photo_url": "http://media1.px.yelpcdn.com/static/201012163223336441/img/gfx/blank_biz_medium.gif", "city": "Blacksburg", "review_count": 2, "name": "Double Dragon", "neighborhoods": [], "url": "http://www.yelp.com/biz/double-dragon-blacksburg", "longitude": -80.402099609375, "state": "VA", "stars": 2.5, "latitude": 37.218799591064503, "type": "business"},
{"business_id": "7ROpZOsaDK1V7Zl_2RaPTA", "full_address": "900 Prices Fork Rd\nBlacksburg, VA 24060", "schools": ["Virginia Tech"], "open": true, "categories": ["Hotels & Travel", "Restaurants", "Event Planning & Services", "Hotels"], "photo_url": "http://media1.px.yelpcdn.com/static/201012163223336441/img/gfx/blank_biz_medium.gif", "city": "Blacksburg", "review_count": 2, "name": "Attitudes Bar & Cafe", "neighborhoods": [], "url": "http://www.yelp.com/biz/attitudes-bar-and-cafe-blacksburg", "longitude": -80.432296752929702, "state": "VA", "stars": 3.5, "latitude": 37.231498718261697, "type": "business"},
{"business_id": "a80CAB0Wa7-NzJtPRAt0ug", "full_address": "119 North Main St\nSte 103\nBlacksburg, VA 24060", "schools": ["Virginia Tech"], "open": true, "categories": ["Ethiopian", "Restaurants"], "photo_url": "http://s3-media4.px.yelpcdn.com/bphoto/mAs3pFJy10QanMbTZOELKA/ms.jpg", "city": "Blacksburg", "review_count": 5, "name": "Excellent Table", "neighborhoods": [], "url": "http://www.yelp.com/biz/excellent-table-blacksburg", "longitude": -80.414085600000007, "state": "VA", "stars": 4.0, "latitude": 37.229483999999999, "type": "business"},
{"business_id": "6ke_-lV12SwP0ebcGFErZA", "full_address": "428 N Main St\nBlacksburg, VA 24060", "schools": ["Virginia Tech"], "open": true, "categories": ["Italian", "Pizza", "Restaurants"], "photo_url": "http://media1.px.yelpcdn.com/static/201012163223336441/img/gfx/blank_biz_medium.gif", "city": "Blacksburg", "review_count": 6, "name": "Ceritano's Ristorante", "neighborhoods": [], "url": "http://www.yelp.com/biz/ceritanos-ristorante-blacksburg", "longitude": -80.416228200000006, "state": "VA", "stars": 3.5, "latitude": 37.231768299999999, "type": "business"},
{"business_id": "jZBRs1UCbylCpcTOQ5Bi3Q", "full_address": "3703 S Main St\nblacksburg, VA 24060", "schools": ["Virginia Tech"], "open": false, "categories": ["Mexican", "Restaurants"], "photo_url": "http://media1.px.yelpcdn.com/static/201012163223336441/img/gfx/blank_biz_medium.gif", "city": "blacksburg", "review_count": 2, "name": "Cinco De Mayo", "neighborhoods": [], "url": "http://www.yelp.com/biz/cinco-de-mayo-blacksburg", "longitude": -80.408119999999997, "state": "VA", "stars": 2.0, "latitude": 37.185586999999998, "type": "business"},
{"business_id": "z2o5kP4SZVbsO5UCH1rP0g", "full_address": "210 Marshall Dr\nChristiansburg, VA 24073", "schools": ["Virginia Tech"], "open": true, "categories": ["Pizza", "Restaurants"], "photo_url": "http://media1.px.yelpcdn.com/static/201012163223336441/img/gfx/blank_biz_medium.gif", "city": "Christiansburg", "review_count": 3, "name": "Cici's Pizza", "neighborhoods": [], "url": "http://www.yelp.com/biz/cicis-pizza-christiansburg", "longitude": -80.424677000000003, "state": "VA", "stars": 2.5, "latitude": 37.162288199999999, "type": "business"},
{"business_id": "wk8EiiHeB3TFx0YCOOityA", "full_address": "810 University City Blvd\nBlacksburg, VA 24060", "schools": ["Virginia Tech"], "open": true, "categories": ["Food", "Beer, Wine & Spirits", "Restaurants"], "photo_url": "http://media1.px.yelpcdn.com/static/201012163223336441/img/gfx/blank_biz_medium.gif", "city": "Blacksburg", "review_count": 14, "name": "Zeppoli's", "neighborhoods": [], "url": "http://www.yelp.com/biz/zeppolis-blacksburg", "longitude": -80.433296203613295, "state": "VA", "stars": 3.5, "latitude": 37.233699798583999, "type": "business"},
{"business_id": "3OmYvTrYQFwITFq4vm6Vsg", "full_address": "420 Peppers Ferry Rd NW\nChristiansburg, VA 24073", "schools": ["Virginia Tech"], "open": false, "categories": ["Seafood", "Restaurants"], "photo_url": "http://media1.px.yelpcdn.com/static/201012163223336441/img/gfx/blank_biz_medium.gif", "city": "Christiansburg", "review_count": 2, "name": "Bookbinder's Grill", "neighborhoods": [], "url": "http://www.yelp.com/biz/bookbinders-grill-christiansburg", "longitude": -80.432389999999998, "state": "VA", "stars": 3.5, "latitude": 37.162260000000003, "type": "business"},
{"business_id": "zkmYfnGF3WilPsGiIkxYYw", "full_address": "432 N Main St #B\nBlacksburg, VA 24062", "schools": ["Virginia Tech"], "open": true, "categories": ["Pizza", "Restaurants"], "photo_url": "http://s3-media3.px.yelpcdn.com/bphoto/cboRV1ch63iMl4-QhbBl4Q/ms.jpg", "city": "Blacksburg", "review_count": 8, "name": "PK's Restaurant & Bar", "neighborhoods": [], "url": "http://www.yelp.com/biz/pks-restaurant-and-bar-blacksburg-2", "longitude": -80.416267395019503, "state": "VA", "stars": 3.0, "latitude": 37.231826782226598, "type": "business"},
{"business_id": "3ulgAMrHx6FFvDUMrLInDw", "full_address": "1410 S Main St\nBlacksburg, VA 24060", "schools": ["Virginia Tech"], "open": true, "categories": ["Buffets", "Chinese", "Restaurants"], "photo_url": "http://s3-media2.px.yelpcdn.com/bphoto/AEA4LGq-N_F9gCBlT227mQ/ms.jpg", "city": "Blacksburg", "review_count": 13, "name": "Hokkaido Buffet", "neighborhoods": [], "url": "http://www.yelp.com/biz/hokkaido-buffet-blacksburg", "longitude": -80.400802200000001, "state": "VA", "stars": 3.5, "latitude": 37.215361399999999, "type": "business"},
{"business_id": "nuU8Wg64xGbsyK_DaOma-w", "full_address": "112 Turner St NW\nBlacksburg, VA 24060", "schools": ["Virginia Tech"], "open": true, "categories": ["Sandwiches", "Restaurants"], "photo_url": "http://s3-media4.px.yelpcdn.com/bphoto/Pr9DXd9yp2m7ftmqUOc4dQ/ms.jpg", "city": "Blacksburg", "review_count": 8, "name": "Sub Station II", "neighborhoods": [], "url": "http://www.yelp.com/biz/sub-station-ii-blacksburg", "longitude": -80.418296813964801, "state": "VA", "stars": 4.0, "latitude": 37.232799530029297, "type": "business"},
{"business_id": "__EmsZiRXiUmljbfpOqZig", "full_address": "213 Draper Rd SW\nBlacksburg, VA 24060", "schools": ["Virginia Tech"], "open": true, "categories": ["Seafood", "Restaurants"], "photo_url": "http://media1.px.yelpcdn.com/static/201012163223336441/img/gfx/blank_biz_medium.gif", "city": "Blacksburg", "review_count": 9, "name": "Awful Arthur's Seafood Co", "neighborhoods": [], "url": "http://www.yelp.com/biz/awful-arthurs-seafood-co-blacksburg", "longitude": -80.414228100000003, "state": "VA", "stars": 2.5, "latitude": 37.228338899999997, "type": "business"},
{"business_id": "5D2grc_hZGoCt4UNncJzVQ", "full_address": "452 Peppers Ferry Rd\nChristiansburg, VA 24073", "schools": ["Virginia Tech"], "open": true, "categories": ["Italian", "Restaurants"], "photo_url": "http://s3-media3.px.yelpcdn.com/bphoto/IuUvZoHawSu7ZrLc8Gw1tg/ms.jpg", "city": "Christiansburg", "review_count": 2, "name": "Mamma Concetta", "neighborhoods": [], "url": "http://www.yelp.com/biz/mamma-concetta-christiansburg", "longitude": -80.432374999999993, "state": "VA", "stars": 2.5, "latitude": 37.162223900000001, "type": "business"},
{"business_id": "F_ofTZiczPkYZ93JAE3RRQ", "full_address": "104 Jackson St NE\nBlacksburg, VA 24060", "schools": ["Virginia Tech"], "open": true, "categories": ["Thai", "Restaurants"], "photo_url": "http://s3-media2.px.yelpcdn.com/bphoto/j4qCR6n2RcR5ppa9m4i1iA/ms.jpg", "city": "Blacksburg", "review_count": 13, "name": "Cafe De Bangkok", "neighborhoods": [], "url": "http://www.yelp.com/biz/cafe-de-bangkok-blacksburg", "longitude": -80.414109800000006, "state": "VA", "stars": 2.5, "latitude": 37.230300900000003, "type": "business"},
{"business_id": "YKWQbP6B13LT60j9tEEtIg", "full_address": "109 College Ave\nBlacksburg, VA 24060", "schools": ["Virginia Tech"], "open": true, "categories": ["Sushi Bars", "Restaurants"], "photo_url": "http://s3-media1.px.yelpcdn.com/bphoto/HP2AxhO6URr6wEbgqY50Rg/ms.jpg", "city": "Blacksburg", "review_count": 10, "name": "Green's Grill & Sushi Bar", "neighborhoods": [], "url": "http://www.yelp.com/biz/greens-grill-and-sushi-bar-blacksburg", "longitude": -80.415499999999994, "state": "VA", "stars": 3.5, "latitude": 37.230400000000003, "type": "business"},
{"business_id": "voXoIsapBR30q_7PgxVeAA", "full_address": "207 S Main St\nBlacksburg, VA 24060", "schools": ["Virginia Tech"], "open": true, "categories": ["Cajun/Creole", "Italian", "Restaurants"], "photo_url": "http://media1.px.yelpcdn.com/static/201012163223336441/img/gfx/blank_biz_medium.gif", "city": "Blacksburg", "review_count": 11, "name": "Backstreets Restaurant", "neighborhoods": [], "url": "http://www.yelp.com/biz/backstreets-restaurant-blacksburg", "longitude": -80.412530099999998, "state": "VA", "stars": 3.0, "latitude": 37.228106799999999, "type": "business"},
{"business_id": "-QNnL7C_z7NxiCarq3VZTQ", "full_address": "201 College Ave\nBlacksburg, VA 24060", "schools": ["Virginia Tech"], "open": true, "categories": ["Greek", "Mediterranean", "Restaurants"], "photo_url": "http://s3-media3.px.yelpcdn.com/bphoto/an5WaKUAd4Om6nVw6nJzuw/ms.jpg", "city": "Blacksburg", "review_count": 27, "name": "Souvlaki", "neighborhoods": [], "url": "http://www.yelp.com/biz/souvlaki-blacksburg-2", "longitude": -80.416300000000007, "state": "VA", "stars": 4.0, "latitude": 37.229900000000001, "type": "business"},
{"business_id": "tpaVWvFqb08iv4_RgzDkjQ", "full_address": "1560 South Main Street\nSuite 116\nBlacksburg, VA 24060", "schools": ["Virginia Tech"], "open": true, "categories": ["Sushi Bars", "Restaurants"], "photo_url": "http://media1.px.yelpcdn.com/static/201012163223336441/img/gfx/blank_biz_medium.gif", "city": "Blacksburg", "review_count": 12, "name": "Sake House", "neighborhoods": [], "url": "http://www.yelp.com/biz/sake-house-blacksburg", "longitude": -80.400402299999996, "state": "VA", "stars": 3.5, "latitude": 37.213818600000003, "type": "business"},
{"business_id": "ncZgdBYg2gzGeSLJb2xM0Q", "full_address": "1200 S Main St\nBlacksburg, VA 24060", "schools": ["Virginia Tech"], "open": true, "categories": ["Buffets", "Restaurants"], "photo_url": "http://media1.px.yelpcdn.com/static/201012163223336441/img/gfx/blank_biz_medium.gif", "city": "Blacksburg", "review_count": 6, "name": "Beijing Buffet", "neighborhoods": [], "url": "http://www.yelp.com/biz/beijing-buffet-blacksburg", "longitude": -80.403158599999998, "state": "VA", "stars": 3.0, "latitude": 37.219460900000001, "type": "business"},
{"business_id": "mAw6QGWaX2nb50P_M6xZpQ", "full_address": "2575 Market St\nChristiansburg, VA 24073", "schools": ["Virginia Tech"], "open": true, "categories": ["Restaurants"], "photo_url": "http://media1.px.yelpcdn.com/static/201012163223336441/img/gfx/blank_biz_medium.gif", "city": "Christiansburg", "review_count": 5, "name": "El Gran Rodeo", "neighborhoods": [], "url": "http://www.yelp.com/biz/el-gran-rodeo-christiansburg", "longitude": -80.421699523925795, "state": "VA", "stars": 4.0, "latitude": 37.163299560546903, "type": "business"},
{"business_id": "thlQuACT7g1GQLA-45pfkw", "full_address": "1409 N Main St\nBlacksburg, VA 24060", "schools": ["Virginia Tech"], "open": true, "categories": ["Chinese", "Restaurants"], "photo_url": "http://s3-media4.px.yelpcdn.com/bphoto/NRxw4KVhgK2R4VLo5FLS3g/ms.jpg", "city": "Blacksburg", "review_count": 18, "name": "Chinese Kitchen", "neighborhoods": [], "url": "http://www.yelp.com/biz/chinese-kitchen-blacksburg", "longitude": -80.415397644042997, "state": "VA", "stars": 4.5, "latitude": 37.246101379394503, "type": "business"},
{"business_id": "T6eavqkeaIrv4giuCeXTPw", "full_address": "401 Draper Rd SW\nBlacksburg, VA 24060", "schools": ["Virginia Tech"], "open": true, "categories": ["Chinese", "Restaurants"], "photo_url": "http://media1.px.yelpcdn.com/static/201012163223336441/img/gfx/blank_biz_medium.gif", "city": "Blacksburg", "review_count": 4, "name": "China Inn Restaurant", "neighborhoods": [], "url": "http://www.yelp.com/biz/china-inn-restaurant-blacksburg", "longitude": -80.412101745605497, "state": "VA", "stars": 4.0, "latitude": 37.226600646972699, "type": "business"},
{"business_id": "cv1AfDz53DzWftlHh-58pg", "full_address": "126 Jackson St NW\nBlacksburg, VA 24060", "schools": ["Virginia Tech"], "open": true, "categories": ["Sushi Bars", "Restaurants"], "photo_url": "http://media1.px.yelpcdn.com/static/201012163223336441/img/gfx/blank_biz_medium.gif", "city": "Blacksburg", "review_count": 2, "name": "Poor Billy's Sushi Restaurant", "neighborhoods": [], "url": "http://www.yelp.com/biz/poor-billys-sushi-restaurant-blacksburg", "longitude": -80.414833999999999, "state": "VA", "stars": 1.5, "latitude": 37.229725999999999, "type": "business"},
{"business_id": "aJMJiCDrj1RsNxWlVTe_fA", "full_address": "295 Peppers Ferry Rd NE\nChristiansburg, VA 24073", "schools": ["Virginia Tech"], "open": true, "categories": ["Steakhouses", "Restaurants"], "photo_url": "http://s3-media4.px.yelpcdn.com/bphoto/VbOGfw2qPpRCto_-jQVL-g/ms.jpg", "city": "Christiansburg", "review_count": 4, "name": "Outback Steakhouse", "neighborhoods": [], "url": "http://www.yelp.com/biz/outback-steakhouse-christiansburg", "longitude": -80.414100646972699, "state": "VA", "stars": 3.5, "latitude": 37.1651000976562, "type": "business"},
{"business_id": "Rhzx-LNOm4EU5Gi2IO0J1g", "full_address": "890 Kabrich St\nBlacksburg, VA 24060", "schools": ["Virginia Tech"], "open": false, "categories": ["Pizza", "Restaurants"], "photo_url": "http://s3-media2.px.yelpcdn.com/bphoto/WyGXvP3wJU5RyDGjufJ7Kw/ms.jpg", "city": "Blacksburg", "review_count": 3, "name": "The Gobbler Restaurant & Pub", "neighborhoods": [], "url": "http://www.yelp.com/biz/the-gobbler-restaurant-and-pub-blacksburg", "longitude": -80.421999999999997, "state": "VA", "stars": 3.5, "latitude": 37.237200000000001, "type": "business"},
{"business_id": "HAXTUHm3RFucIbNZSpIU3A", "full_address": "622 N Main St\nBlacksburg, VA 24060", "schools": ["Virginia Tech"], "open": true, "categories": ["Wine Bars", "Bars", "Nightlife", "Restaurants"], "photo_url": "http://s3-media3.px.yelpcdn.com/bphoto/4kytRGpEFjSkj75tn5TI5w/ms.jpg", "city": "Blacksburg", "review_count": 14, "name": "622 North", "neighborhoods": [], "url": "http://www.yelp.com/biz/622-north-blacksburg", "longitude": -80.419523699999999, "state": "VA", "stars": 4.0, "latitude": 37.234487199999997, "type": "business"},
{"business_id": "nXXfB3-tIIZczK4byP8JWQ", "full_address": "418 N Main St\nBlacksburg, VA 24060", "schools": ["Virginia Tech"], "open": true, "categories": ["Burgers", "American (Traditional)", "Restaurants"], "photo_url": "http://media1.px.yelpcdn.com/static/201012163223336441/img/gfx/blank_biz_medium.gif", "city": "Blacksburg", "review_count": 15, "name": "Mike's Grill", "neighborhoods": [], "url": "http://www.yelp.com/biz/mikes-grill-blacksburg", "longitude": -80.415901184082003, "state": "VA", "stars": 3.5, "latitude": 37.231700897216797, "type": "business"},
{"business_id": "I_CFI8tpJHkGthEet3v3WA", "full_address": "112 N Main St\nBlacksburg, VA 24060", "schools": ["Virginia Tech"], "open": true, "categories": ["Restaurants"], "photo_url": "http://s3-media3.px.yelpcdn.com/bphoto/BcpozthxuUruYeEykektOA/ms.jpg", "city": "Blacksburg", "review_count": 6, "name": "London Underground Pub Ltd", "neighborhoods": [], "url": "http://www.yelp.com/biz/london-underground-pub-ltd-blacksburg", "longitude": -80.413803100585895, "state": "VA", "stars": 3.5, "latitude": 37.229499816894503, "type": "business"},
{"business_id": "PMduIGhezzKOdEsjEX4llg", "full_address": "880 University City Blvd\nBlacksburg, VA 24060", "schools": ["Virginia Tech"], "open": true, "categories": ["American (New)", "Restaurants"], "photo_url": "http://media1.px.yelpcdn.com/static/201012163223336441/img/gfx/blank_biz_medium.gif", "city": "Blacksburg", "review_count": 5, "name": "Five Guys Burger and Fries", "neighborhoods": [], "url": "http://www.yelp.com/biz/five-guys-burger-and-fries-blacksburg", "longitude": -80.434035699999995, "state": "VA", "stars": 4.0, "latitude": 37.235789500000003, "type": "business"},
{"business_id": "vJFplxoIJO2MLpodACW7Vw", "full_address": "150 Laurel St NE\nChristiansbrg, VA 24073", "schools": ["Virginia Tech"], "open": true, "categories": ["American (Traditional)", "Steakhouses", "Restaurants"], "photo_url": "http://media1.px.yelpcdn.com/static/201012163223336441/img/gfx/blank_biz_medium.gif", "city": "Christiansbrg", "review_count": 6, "name": "O'Charley's", "neighborhoods": [], "url": "http://www.yelp.com/biz/o-charleys-christiansbrg", "longitude": -80.420416399999993, "state": "VA", "stars": 2.5, "latitude": 37.162519199999998, "type": "business"},
{"business_id": "2C7Gyve_y8WRiJmB28k38g", "full_address": "75 Peppers Ferry Road\nChristiansburg, VA 24073", "schools": ["Virginia Tech"], "open": true, "categories": ["Seafood", "Restaurants"], "photo_url": "http://s3-media2.px.yelpcdn.com/bphoto/qD0-Gsreu3Py8wJa2PQ0Ag/ms.jpg", "city": "Christiansburg", "review_count": 3, "name": "Red Lobster", "neighborhoods": [], "url": "http://www.yelp.com/biz/red-lobster-christiansburg", "longitude": -80.421971600000006, "state": "VA", "stars": 3.5, "latitude": 37.163912199999999, "type": "business"},
{"business_id": "lE_jefQ2F9PSjtNmNTSFIA", "full_address": "285 Ridinger St\nChristiansburg, VA 24073", "schools": ["Virginia Tech"], "open": true, "categories": ["Steakhouses", "Restaurants"], "photo_url": "http://media1.px.yelpcdn.com/static/201012163223336441/img/gfx/blank_biz_medium.gif", "city": "Christiansburg", "review_count": 9, "name": "The Farmhouse", "neighborhoods": [], "url": "http://www.yelp.com/biz/the-farmhouse-christiansburg", "longitude": -80.420900000000003, "state": "VA", "stars": 2.0, "latitude": 37.153500000000001, "type": "business"},
{"business_id": "K4Sq3cz0-73HWS14K6I6Ng", "full_address": "623 N Main St\nBlacksburg, VA 24060", "schools": ["Virginia Tech"], "open": true, "categories": ["Mexican", "Restaurants"], "photo_url": "http://s3-media3.px.yelpcdn.com/bphoto/kylcMs5zEkw0DYoNxpn68g/ms.jpg", "city": "Blacksburg", "review_count": 21, "name": "El Rodeo", "neighborhoods": [], "url": "http://www.yelp.com/biz/el-rodeo-blacksburg", "longitude": -80.418800354003906, "state": "VA", "stars": 3.0, "latitude": 37.233699798583999, "type": "business"},
{"business_id": "nbJSDQDMPopbVf6ASB8a5w", "full_address": "100 Bradley Dr\nChristiansburg, VA 24073", "schools": ["Virginia Tech"], "open": true, "categories": ["American (Traditional)", "Steakhouses", "Restaurants"], "photo_url": "http://media1.px.yelpcdn.com/static/201012163223336441/img/gfx/blank_biz_medium.gif", "city": "Christiansburg", "review_count": 4, "name": "Texas Roadhouse", "neighborhoods": [], "url": "http://www.yelp.com/biz/texas-roadhouse-christiansburg", "longitude": -80.436096191406193, "state": "VA", "stars": 4.0, "latitude": 37.1661987304688, "type": "business"},
{"business_id": "5ydvKUok_yX7dBHbpluuRg", "full_address": "211 Draper Rd NW\nBlacksburg, VA 24060", "schools": ["Virginia Tech"], "open": true, "categories": ["Sandwiches", "Restaurants"], "photo_url": "http://s3-media2.px.yelpcdn.com/bphoto/kC-rL99aWEZyUIevKw7D-w/ms.jpg", "city": "Blacksburg", "review_count": 5, "name": "She-Sha", "neighborhoods": [], "url": "http://www.yelp.com/biz/she-sha-blacksburg", "longitude": -80.415802001953097, "state": "VA", "stars": 4.0, "latitude": 37.229598999023402, "type": "business"},
{"business_id": "rA0zgy3m2Xdb26Sk_5BK3w", "full_address": "105 Laurel St\nChristiansburg, VA 24073", "schools": ["Virginia Tech"], "open": true, "categories": ["Italian", "Restaurants"], "photo_url": "http://media1.px.yelpcdn.com/static/201012163223336441/img/gfx/blank_biz_medium.gif", "city": "Christiansburg", "review_count": 2, "name": "Fazoli's", "neighborhoods": [], "url": "http://www.yelp.com/biz/fazolis-christiansburg", "longitude": -80.422302246093807, "state": "VA", "stars": 3.5, "latitude": 37.162899017333999, "type": "business"},
{"business_id": "cE96KgmjaqZaraGOIVaHJw", "full_address": "2790 Market St\nChristiansburg, VA 24073", "schools": ["Virginia Tech"], "open": true, "categories": ["Bars", "American (Traditional)", "Nightlife", "Restaurants"], "photo_url": "http://media1.px.yelpcdn.com/static/201012163223336441/img/gfx/blank_biz_medium.gif", "city": "Christiansburg", "review_count": 2, "name": "Applebee's Neighborhood Grill & Bar", "neighborhoods": [], "url": "http://www.yelp.com/biz/applebees-neighborhood-grill-and-bar-christiansburg", "longitude": -80.421192300000001, "state": "VA", "stars": 1.5, "latitude": 37.167135500000001, "type": "business"},
{"business_id": "X7SaMeMdYa76zmavVc2YUA", "full_address": "211 Prices Fork Rd\nSte 200\nBlacksburg, VA 24060", "schools": ["Virginia Tech"], "open": true, "categories": ["Bars", "American (Traditional)", "Nightlife", "Restaurants"], "photo_url": "http://s3-media2.px.yelpcdn.com/bphoto/co6KVKEEdCFhx7O37sCTkA/ms.jpg", "city": "Blacksburg", "review_count": 10, "name": "Buffalo Wild Wings Grill & Bar", "neighborhoods": [], "url": "http://www.yelp.com/biz/buffalo-wild-wings-grill-and-bar-blacksburg", "longitude": -80.421312200000003, "state": "VA", "stars": 3.5, "latitude": 37.234558999999997, "type": "business"},
{"business_id": "92PznvJFnyw54j5LeQqNWA", "full_address": "212 Draper Rd NW\nBlacksburg, VA 24060", "schools": ["Virginia Tech"], "open": true, "categories": ["American (Traditional)", "Restaurants"], "photo_url": "http://media1.px.yelpcdn.com/static/201012163223336441/img/gfx/blank_biz_medium.gif", "city": "Blacksburg", "review_count": 3, "name": "River Mill", "neighborhoods": [], "url": "http://www.yelp.com/biz/river-mill-blacksburg", "longitude": -80.415901184082003, "state": "VA", "stars": 4.0, "latitude": 37.229900360107401, "type": "business"},
{"business_id": "5zyibT__dkE21sAyLb1qvA", "full_address": "1201 S Main St\nBlacksburg, VA 24060", "schools": ["Virginia Tech"], "open": true, "categories": ["Burgers", "Sandwiches", "Restaurants"], "photo_url": "http://media1.px.yelpcdn.com/static/201012163223336441/img/gfx/blank_biz_medium.gif", "city": "Blacksburg", "review_count": 15, "name": "Lefty's Main Street Grille", "neighborhoods": [], "url": "http://www.yelp.com/biz/leftys-main-street-grille-blacksburg", "longitude": -80.402548100000004, "state": "VA", "stars": 3.5, "latitude": 37.219135999999999, "type": "business"},
{"business_id": "q4a9_hphM1zrmYZDi6lAcg", "full_address": "221 N Main St\nBlacksburg, VA 24060", "schools": ["Virginia Tech"], "open": true, "categories": ["Breakfast & Brunch", "American (Traditional)", "Diners", "Restaurants"], "photo_url": "http://s3-media1.px.yelpcdn.com/bphoto/U5Hsn-ZsUeiOvI_h6yRk4g/ms.jpg", "city": "Blacksburg", "review_count": 4, "name": "Joe's Diner", "neighborhoods": [], "url": "http://www.yelp.com/biz/joes-diner-blacksburg", "longitude": -80.415099799999993, "state": "VA", "stars": 3.5, "latitude": 37.230438100000001, "type": "business"},
{"business_id": "vpxUqSMqPJyhTisCDSG1_Q", "full_address": "235 N Main St\nBlacksburg, VA 24060", "schools": ["Virginia Tech"], "open": true, "categories": ["Mediterranean", "Restaurants"], "photo_url": "http://s3-media3.px.yelpcdn.com/bphoto/gKvzJaGSgwFZJzNdxcc-WA/ms.jpg", "city": "Blacksburg", "review_count": 18, "name": "Pita Vera", "neighborhoods": [], "url": "http://www.yelp.com/biz/pita-vera-blacksburg", "longitude": -80.415123600000001, "state": "VA", "stars": 3.5, "latitude": 37.230462000000003, "type": "business"},
{"business_id": "SIJy_CroQ6dmc8wQDqM5hg", "full_address": "2767 Market St\nChristiansburg, VA 24073", "schools": ["Virginia Tech"], "open": true, "categories": ["Pizza", "Sandwiches", "Restaurants"], "photo_url": "http://media1.px.yelpcdn.com/static/201012163223336441/img/gfx/blank_biz_medium.gif", "city": "Christiansburg", "review_count": 2, "name": "Sub Shack", "neighborhoods": [], "url": "http://www.yelp.com/biz/sub-shack-christiansburg", "longitude": -80.421095199999996, "state": "VA", "stars": 3.5, "latitude": 37.167279800000003, "type": "business"},
{"business_id": "hWoT61c8id5vIsxlP618nQ", "full_address": "217 College Ave\nBlacksburg, VA 24060", "schools": ["Virginia Tech"], "open": true, "categories": ["American (Traditional)", "Restaurants"], "photo_url": "http://s3-media2.px.yelpcdn.com/bphoto/dGSMHNVekNzAlhDS01mVaQ/ms.jpg", "city": "Blacksburg", "review_count": 11, "name": "Top of the Stairs", "neighborhoods": [], "url": "http://www.yelp.com/biz/top-of-the-stairs-blacksburg", "longitude": -80.417396545410199, "state": "VA", "stars": 2.5, "latitude": 37.229198455810497, "type": "business"},
{"business_id": "v070pCAUGi1NBwD7_Jijdg", "full_address": "700 New River Rd\nChristiansburg, VA 24073", "schools": ["Virginia Tech"], "open": true, "categories": ["Mexican", "Restaurants"], "photo_url": "http://media1.px.yelpcdn.com/static/201012163223336441/img/gfx/blank_biz_medium.gif", "city": "Christiansburg", "review_count": 4, "name": "Cinco De Mayo Resturant", "neighborhoods": [], "url": "http://www.yelp.com/biz/cinco-de-mayo-resturant-christiansburg", "longitude": -80.429454000000007, "state": "VA", "stars": 3.0, "latitude": 37.164126000000003, "type": "business"},
{"business_id": "j3lZQs0YKMDAwKSbDRNY7Q", "full_address": "801 University City Blvd\nSte 9\nBlacksburg, VA 24060", "schools": ["Virginia Tech"], "open": true, "categories": ["Food", "Desserts", "Restaurants", "Asian Fusion", "Tea Rooms"], "photo_url": "http://s3-media1.px.yelpcdn.com/bphoto/oS5Luy8IaLK9FRRcJ9PSiQ/ms.jpg", "city": "Blacksburg", "review_count": 4, "name": "O-Pass Tea & Crepe", "neighborhoods": [], "url": "http://www.yelp.com/biz/o-pass-tea-and-crepe-blacksburg", "longitude": -80.434200000000004, "state": "VA", "stars": 4.0, "latitude": 37.233699999999999, "type": "business"},
{"business_id": "aURgpKldq6YKqAleHaFUtA", "full_address": "117 S Main St\nBlacksburg, VA 24060", "schools": ["Virginia Tech"], "open": true, "categories": ["Mexican", "Restaurants"], "photo_url": "http://s3-media1.px.yelpcdn.com/bphoto/zdzF_qbkBSUjpSYE6GVoSw/ms.jpg", "city": "Blacksburg", "review_count": 41, "name": "Cabo Fish Taco", "neighborhoods": [], "url": "http://www.yelp.com/biz/cabo-fish-taco-blacksburg", "longitude": -80.4131, "state": "VA", "stars": 3.5, "latitude": 37.2288, "type": "business"},
{"business_id": "NLfQp6SUK9vwv3WNURbjIg", "full_address": "210 Prices Fork Rd\nSte A\nBlacksburg, VA 24060", "schools": ["Virginia Tech"], "open": true, "categories": ["Pizza", "Restaurants"], "photo_url": "http://s3-media1.px.yelpcdn.com/bphoto/zcUXFbbNuEFYrP7v9160_w/ms.jpg", "city": "Blacksburg", "review_count": 12, "name": "Gumby's Pizza", "neighborhoods": [], "url": "http://www.yelp.com/biz/gumbys-pizza-blacksburg", "longitude": -80.421220000000005, "state": "VA", "stars": 3.5, "latitude": 37.234439999999999, "type": "business"},
{"business_id": "r4panjUBSyDOEtDsSWyf9Q", "full_address": "3703 S Main St\nBlacksburg, VA 24060", "schools": ["Virginia Tech"], "open": true, "categories": ["Mexican", "Restaurants"], "photo_url": "http://s3-media2.px.yelpcdn.com/bphoto/F5TjzB4oZhabDA1pxtL3ZA/ms.jpg", "city": "Blacksburg", "review_count": 5, "name": "El Mariachi", "neighborhoods": [], "url": "http://www.yelp.com/biz/el-mariachi-blacksburg", "longitude": -80.407285999999999, "state": "VA", "stars": 4.0, "latitude": 37.187156999999999, "type": "business"},
{"business_id": "T0WFU_zBoeHD1-08TX33-g", "full_address": "801 University City Blvd\nBlacksburg, VA 24060", "schools": ["Virginia Tech"], "open": true, "categories": ["Chinese", "Restaurants"], "photo_url": "http://media1.px.yelpcdn.com/static/201012163223336441/img/gfx/blank_biz_medium.gif", "city": "Blacksburg", "review_count": 4, "name": "Hunan King Chinese Restaurant", "neighborhoods": [], "url": "http://www.yelp.com/biz/hunan-king-chinese-restaurant-blacksburg", "longitude": -80.433197021484403, "state": "VA", "stars": 3.0, "latitude": 37.2335014343262, "type": "business"},
{"business_id": "X381_JV6xOq3VSsep13GvA", "full_address": "922 University City Blvd\nBlacksburg, VA 24060", "schools": ["Virginia Tech"], "open": true, "categories": ["Sandwiches", "Restaurants"], "photo_url": "http://s3-media3.px.yelpcdn.com/bphoto/amOh4i5D4iWBaLj5R1UNTw/ms.jpg", "city": "Blacksburg", "review_count": 24, "name": "Macado's", "neighborhoods": [], "url": "http://www.yelp.com/biz/macados-blacksburg", "longitude": -80.434402465820298, "state": "VA", "stars": 3.0, "latitude": 37.236698150634801, "type": "business"},
{"business_id": "XzsZqaWSTXbyS_kbv7GZSA", "full_address": "1200 S Main St\nBlacksburg, VA 24060", "schools": ["Virginia Tech"], "open": false, "categories": ["Restaurants"], "photo_url": "http://media1.px.yelpcdn.com/static/201012163223336441/img/gfx/blank_biz_medium.gif", "city": "Blacksburg", "review_count": 3, "name": "Vincents Ristorante", "neighborhoods": [], "url": "http://www.yelp.com/biz/vincents-ristorante-blacksburg", "longitude": -80.403158599999998, "state": "VA", "stars": 2.5, "latitude": 37.219460900000001, "type": "business"},
{"business_id": "f2ggWe2Lw3cGeA5T7mk_ZA", "full_address": "400 Turner St\nBlacksburg, VA 24060", "schools": ["Virginia Tech"], "open": true, "categories": ["Mexican", "Restaurants"], "photo_url": "http://media1.px.yelpcdn.com/static/201012163223336441/img/gfx/blank_biz_medium.gif", "city": "Blacksburg", "review_count": 10, "name": "Chu-Cho's Mexican", "neighborhoods": [], "url": "http://www.yelp.com/biz/chu-chos-mexican-blacksburg", "longitude": -80.421999999999997, "state": "VA", "stars": 2.0, "latitude": 37.2331, "type": "business"},
{"business_id": "WKj7NYkcjY79SvaqIunzVw", "full_address": "204 Draper Road NW\nBlacksburg, VA 24060", "schools": ["Virginia Tech"], "open": true, "categories": ["Bars", "Nightlife", "Restaurants"], "photo_url": "http://media1.px.yelpcdn.com/static/201012163223336441/img/gfx/blank_biz_medium.gif", "city": "Blacksburg", "review_count": 2, "name": "Oge-Chi Restuarant and Lounge", "neighborhoods": [], "url": "http://www.yelp.com/biz/oge-chi-restuarant-and-lounge-blacksburg", "longitude": -80.415565999999998, "state": "VA", "stars": 2.5, "latitude": 37.229474000000003, "type": "business"},
{"business_id": "hSDRGgXGuX2BtgaIi7qm2w", "full_address": "801 University City Blvd Ste 15\nBlacksburg, VA 24060", "schools": ["Virginia Tech"], "open": true, "categories": ["Sushi Bars", "Restaurants"], "photo_url": "http://s3-media1.px.yelpcdn.com/bphoto/m8oHqHFPHPEUMzQ089qp2g/ms.jpg", "city": "Blacksburg", "review_count": 8, "name": "Sushi Factory", "neighborhoods": [], "url": "http://www.yelp.com/biz/sushi-factory-blacksburg", "longitude": -80.432990000000004, "state": "VA", "stars": 4.0, "latitude": 37.234296000000001, "type": "business"},
{"business_id": "zgjMObNE3iH01oEZw76Q7Q", "full_address": "420 Peppers Ferry Rd NW\nChristiansburg, VA 24073", "schools": ["Virginia Tech"], "open": true, "categories": ["Food", "Beer, Wine & Spirits", "Restaurants"], "photo_url": "http://s3-media2.px.yelpcdn.com/bphoto/DwOSwD-dtznI5nIUYa5QQQ/ms.jpg", "city": "Christiansburg", "review_count": 2, "name": "Blackstone Grill", "neighborhoods": [], "url": "http://www.yelp.com/biz/blackstone-grill-christiansburg", "longitude": -80.432699999999997, "state": "VA", "stars": 3.5, "latitude": 37.161799999999999, "type": "business"},
{"business_id": "Cmim8IrcxWZdJ6SN6CDSAw", "full_address": "400 Turner St NW\nBlacksburg, VA 24060", "schools": ["Virginia Tech"], "open": false, "categories": ["Restaurants"], "photo_url": "http://media1.px.yelpcdn.com/static/201012163223336441/img/gfx/blank_biz_medium.gif", "city": "Blacksburg", "review_count": 4, "name": "Boston Beanery", "neighborhoods": [], "url": "http://www.yelp.com/biz/boston-beanery-blacksburg", "longitude": -80.421570299999999, "state": "VA", "stars": 3.0, "latitude": 37.232956700000003, "type": "business"},
{"business_id": "PBZCrvjHasay0wqqI58IxA", "full_address": "50 Merrimac Rd\nChristiansburg, VA 24073", "schools": ["Virginia Tech"], "open": false, "categories": ["Japanese", "Restaurants"], "photo_url": "http://media1.px.yelpcdn.com/static/201012163223336441/img/gfx/blank_biz_medium.gif", "city": "Christiansburg", "review_count": 2, "name": "Tataki", "neighborhoods": [], "url": "http://www.yelp.com/biz/tataki-christiansburg", "longitude": -80.418555600000005, "state": "VA", "stars": 4.5, "latitude": 37.176378399999997, "type": "business"},
{"business_id": "pn96zHTDVP_F68de76Ox5g", "full_address": "65 Peppers Ferry Rd NW\nChristiansburg, VA 24073", "schools": ["Virginia Tech"], "open": true, "categories": ["Breakfast & Brunch", "Restaurants"], "photo_url": "http://s3-media3.px.yelpcdn.com/bphoto/fu6n7fS8jTXoPGV-wH1VyQ/ms.jpg", "city": "Christiansburg", "review_count": 4, "name": "IHOP", "neighborhoods": [], "url": "http://www.yelp.com/biz/ihop-christiansburg", "longitude": -80.424599999999998, "state": "VA", "stars": 1.5, "latitude": 37.1646, "type": "business"},
{"business_id": "71py1RG3ev8o6Nk2Dwe1Sg", "full_address": "110 Turner St NW\nBlacksburg, VA 24060", "schools": ["Virginia Tech"], "open": true, "categories": ["Fast Food", "Restaurants"], "photo_url": "http://media1.px.yelpcdn.com/static/201012163223336441/img/gfx/blank_biz_medium.gif", "city": "Blacksburg", "review_count": 2, "name": "McDonald's", "neighborhoods": [], "url": "http://www.yelp.com/biz/mcdonalds-blacksburg-2", "longitude": -80.418098449707003, "state": "VA", "stars": 3.0, "latitude": 37.233001708984403, "type": "business"},
{"business_id": "n24Vn9DpMwDW5e6MPjOnrA", "full_address": "310 Turner St NW\nBlacksburg, VA 24060", "schools": ["Virginia Tech"], "open": true, "categories": ["Delis", "Restaurants"], "photo_url": "http://media1.px.yelpcdn.com/static/201012163223336441/img/gfx/blank_biz_medium.gif", "city": "Blacksburg", "review_count": 18, "name": "Sycamore Deli", "neighborhoods": [], "url": "http://www.yelp.com/biz/sycamore-deli-blacksburg-2", "longitude": -80.420997619628906, "state": "VA", "stars": 4.0, "latitude": 37.233001708984403, "type": "business"},
{"business_id": "KsrMCDF689P4bTBrrbTLjA", "full_address": "1470 S Main St\nBlacksburg, VA 24060", "schools": ["Virginia Tech"], "open": true, "categories": ["American (Traditional)", "Barbeque", "Restaurants"], "photo_url": "http://s3-media2.px.yelpcdn.com/bphoto/4uhlsCgYLqWgL505lGtVaw/ms.jpg", "city": "Blacksburg", "review_count": 25, "name": "Bull and Bones Brewhaus and Grill", "neighborhoods": [], "url": "http://www.yelp.com/biz/bull-and-bones-brewhaus-and-grill-blacksburg", "longitude": -80.400524399999995, "state": "VA", "stars": 3.5, "latitude": 37.214413299999997, "type": "business"},
{"business_id": "Vjag5dfulq_kasZFuUFevQ", "full_address": "201 N Main St\nBlacksburg, VA 24060", "schools": ["Virginia Tech"], "open": true, "categories": ["Bars", "Restaurants", "American (Traditional)", "Sports Bars", "Nightlife"], "photo_url": "http://s3-media3.px.yelpcdn.com/bphoto/bi59Qy2-_6kwX6-MtjP2nw/ms.jpg", "city": "Blacksburg", "review_count": 3, "name": "Big Al's Grille & Sports Bar", "neighborhoods": [], "url": "http://www.yelp.com/biz/big-als-grille-and-sports-bar-blacksburg", "longitude": -80.415000000000006, "state": "VA", "stars": 4.5, "latitude": 37.229999900000003, "type": "business"},
{"business_id": "UWCk_n8xoSZzpQQsf1mx_g", "full_address": "801 University City Blvd\nSte 16\nBlacksburg, VA 24060", "schools": ["Virginia Tech"], "open": true, "categories": ["Restaurants"], "photo_url": "http://s3-media3.px.yelpcdn.com/bphoto/-cXrvn9dKPh4rPt8c1ljcA/ms.jpg", "city": "Blacksburg", "review_count": 2, "name": "Yogi Factory", "neighborhoods": [], "url": "http://www.yelp.com/biz/yogi-factory-blacksburg", "longitude": -80.434200000000004, "state": "VA", "stars": 5.0, "latitude": 37.233699999999999, "type": "business"},
{"business_id": "DFjhSd1CRQBarXbsyPT4WQ", "full_address": "781 University City Blvd\nBlacksburg, VA 24060", "schools": ["Virginia Tech"], "open": true, "categories": ["Barbeque", "Restaurants"], "photo_url": "http://s3-media4.px.yelpcdn.com/bphoto/2lf48eSXEqwnkB7h7sz1lw/ms.jpg", "city": "Blacksburg", "review_count": 5, "name": "Log Cabin BBQ", "neighborhoods": [], "url": "http://www.yelp.com/biz/log-cabin-bbq-blacksburg", "longitude": -80.432924, "state": "VA", "stars": 3.0, "latitude": 37.233790999999997, "type": "business"},
{"business_id": "J-pY8tSvUc2ekYnnUR-uQQ", "full_address": "904 Prices Fork Rd\nBlacksburg, VA 24060", "schools": ["Virginia Tech"], "open": true, "categories": ["Fast Food", "Restaurants"], "photo_url": "http://s3-media2.px.yelpcdn.com/bphoto/feV1KBI8TSHYOdT65cGdhQ/ms.jpg", "city": "Blacksburg", "review_count": 2, "name": "Hardee's", "neighborhoods": [], "url": "http://www.yelp.com/biz/hardees-blacksburg", "longitude": -80.432296752929702, "state": "VA", "stars": 3.5, "latitude": 37.231700897216797, "type": "business"},
{"business_id": "MyU7EzjeeWriyDwkenfLqA", "full_address": "239 N Main Street\nBlacksburg, VA 24060", "schools": ["Virginia Tech"], "open": true, "categories": ["Tex-Mex", "Restaurants"], "photo_url": "http://media1.px.yelpcdn.com/static/201012163223336441/img/gfx/blank_biz_medium.gif", "city": "Blacksburg", "review_count": 6, "name": "Moe's Southwest Grill", "neighborhoods": [], "url": "http://www.yelp.com/biz/moes-southwest-grill-blacksburg", "longitude": -80.414946200000003, "state": "VA", "stars": 2.5, "latitude": 37.230268199999998, "type": "business"}
]